{
"type": "FeatureCollection",
                                                                                
"features": [
{ "type": "Feature", "properties": { "id": 5, "name": "Rivadavia", "line": "F", "plan": "Ley 670" }, "geometry": { "type": "Point", "coordinates": [ -58.391887984436778, -34.609756641539136 ] } },
{ "type": "Feature", "properties": { "id": 4, "name": "México", "line": "F", "plan": "Ley 670" }, "geometry": { "type": "Point", "coordinates": [ -58.391671792530616, -34.615984115916419 ] } },
{ "type": "Feature", "properties": { "id": 3, "name": "San Juan", "line": "F", "plan": "Ley 670" }, "geometry": { "type": "Point", "coordinates": [ -58.391449568484212, -34.622988407203557 ] } },
{ "type": "Feature", "properties": { "id": 2, "name": "Sáenz Peña", "line": "F", "plan": "Ley 670" }, "geometry": { "type": "Point", "coordinates": [ -58.387701276968301, -34.627134681786401 ] } },
{ "type": "Feature", "properties": { "id": 1, "name": "Constitución", "line": "F", "plan": "Ley 670" }, "geometry": { "type": "Point", "coordinates": [ -58.380889945067644, -34.626886366464909 ] } },
{ "type": "Feature", "properties": { "id": 7, "name": "Santa Fe", "line": "F", "plan": "Ley 670" }, "geometry": { "type": "Point", "coordinates": [ -58.393266207838529, -34.595631888328271 ] } },
{ "type": "Feature", "properties": { "id": 7, "name": "Córdoba", "line": "F", "plan": "Ley 670" }, "geometry": { "type": "Point", "coordinates": [ -58.392887872002746, -34.599925177679012 ] } },
{ "type": "Feature", "properties": { "id": 6, "name": "Corrientes", "line": "F", "plan": "Ley 670" }, "geometry": { "type": "Point", "coordinates": [ -58.39226632027254, -34.604663109863843 ] } },
{ "type": "Feature", "properties": { "id": 12, "name": "Plaza Italia", "line": "F", "plan": "Ley 670" }, "geometry": { "type": "Point", "coordinates": [ -58.421396169660497, -34.580924416048781 ] } },
{ "type": "Feature", "properties": { "id": 11, "name": "Salguero", "line": "F", "plan": "Ley 670" }, "geometry": { "type": "Point", "coordinates": [ -58.410399416401837, -34.582194460895309 ] } },
{ "type": "Feature", "properties": { "id": 10, "name": "Bustamante", "line": "F", "plan": "Ley 670" }, "geometry": { "type": "Point", "coordinates": [ -58.402643531768284, -34.583462655352108 ] } },
{ "type": "Feature", "properties": { "id": 9, "name": "Pueyrredón", "line": "F", "plan": "Ley 670" }, "geometry": { "type": "Point", "coordinates": [ -58.397481950008675, -34.587267122607706 ] } },
{ "type": "Feature", "properties": { "id": 8, "name": "Junín", "line": "F", "plan": "Ley 670" }, "geometry": { "type": "Point", "coordinates": [ -58.393617519686053, -34.590359514438489 ] } },
{ "type": "Feature", "properties": { "id": 19, "name": "Mario Bravo", "line": "G", "plan": "Ley 670" }, "geometry": { "type": "Point", "coordinates": [ -58.415805782412264, -34.597878795691216 ] } },
{ "type": "Feature", "properties": { "id": 18, "name": "Jean Jaures", "line": "G", "plan": "Ley 670" }, "geometry": { "type": "Point", "coordinates": [ -58.406473458248676, -34.598081118976843 ] } },
{ "type": "Feature", "properties": { "id": 17, "name": "Pueyrredón", "line": "G", "plan": "Ley 670" }, "geometry": { "type": "Point", "coordinates": [ -58.40110449150761, -34.594837564426754 ] } },
{ "type": "Feature", "properties": { "id": 16, "name": "Riobamba", "line": "G", "plan": "Ley 670" }, "geometry": { "type": "Point", "coordinates": [ -58.394468172102371, -34.595842890199961 ] } },
{ "type": "Feature", "properties": { "id": 15, "name": "Paraná", "line": "G", "plan": "Ley 670" }, "geometry": { "type": "Point", "coordinates": [ -58.388246622659956, -34.595811276367215 ] } },
{ "type": "Feature", "properties": { "id": 14, "name": "Cerrito", "line": "G", "plan": "Ley 670" }, "geometry": { "type": "Point", "coordinates": [ -58.382601142610369, -34.595520428541484 ] } },
{ "type": "Feature", "properties": { "id": 13, "name": "Retiro", "line": "G", "plan": "Ley 670" }, "geometry": { "type": "Point", "coordinates": [ -58.373898654316228, -34.592087082683321 ] } },
{ "type": "Feature", "properties": { "id": 21, "name": "Estado de Israel", "line": "G", "plan": "Ley 670" }, "geometry": { "type": "Point", "coordinates": [ -58.431951087261595, -34.601830333175997 ] } },
{ "type": "Feature", "properties": { "id": 20, "name": "Gascón", "line": "G", "plan": "Ley 670" }, "geometry": { "type": "Point", "coordinates": [ -58.422979766584135, -34.597783956481415 ] } },
{ "type": "Feature", "properties": { "id": 23, "name": "Cid Campeador", "line": "G", "plan": "Ley 670" }, "geometry": { "type": "Point", "coordinates": [ -58.445961094894891, -34.607697229209712 ] } },
{ "type": "Feature", "properties": { "id": 22, "name": "Parque Centenario", "line": "G", "plan": "Ley 670" }, "geometry": { "type": "Point", "coordinates": [ -58.435453589169917, -34.608734008253684 ] } },
{ "type": "Feature", "properties": { "id": 24, "name": "Costa Rica", "line": "I", "plan": "Ley 670" }, "geometry": { "type": "Point", "coordinates": [ -58.423909745151256, -34.590247989198168 ] } },
{ "type": "Feature", "properties": { "id": 23, "name": "Plaza Italia", "line": "I", "plan": "Ley 670" }, "geometry": { "type": "Point", "coordinates": [ -58.421501289197948, -34.581039590866091 ] } },
{ "type": "Feature", "properties": { "id": 25, "name": "Córdoba", "line": "I", "plan": "Ley 670" }, "geometry": { "type": "Point", "coordinates": [ -58.4300227329311, -34.594280543066851 ] } },
{ "type": "Feature", "properties": { "id": 26, "name": "Corrientes", "line": "I", "plan": "Ley 670" }, "geometry": { "type": "Point", "coordinates": [ -58.438646229882572, -34.599791383453699 ] } },
{ "type": "Feature", "properties": { "id": 27, "name": "Warnes", "line": "I", "plan": "Ley 670" }, "geometry": { "type": "Point", "coordinates": [ -58.442473225571106, -34.602244261887336 ] } },
{ "type": "Feature", "properties": { "id": 30, "name": "Rivadavia", "line": "I", "plan": "Ley 670" }, "geometry": { "type": "Point", "coordinates": [ -58.441554746605838, -34.620201828888796 ] } },
{ "type": "Feature", "properties": { "id": 29, "name": "Aranguren", "line": "I", "plan": "Ley 670" }, "geometry": { "type": "Point", "coordinates": [ -58.441034275192195, -34.613692869647643 ] } },
{ "type": "Feature", "properties": { "id": 28, "name": "Díaz Vélez", "line": "I", "plan": "Ley 670" }, "geometry": { "type": "Point", "coordinates": [ -58.445534822121914, -34.607536184341221 ] } },
{ "type": "Feature", "properties": { "id": 32, "name": "Directorio", "line": "I", "plan": "Ley 670" }, "geometry": { "type": "Point", "coordinates": [ -58.44277938522621, -34.630048284002768 ] } },
{ "type": "Feature", "properties": { "id": 31, "name": "Pedro Goyena", "line": "I", "plan": "Ley 670" }, "geometry": { "type": "Point", "coordinates": [ -58.440478085152151, -34.62610564330398 ] } },
{ "type": "Feature", "properties": { "id": 40, "name": "Sáenz", "line": "H", "plan": "Ley 317" }, "geometry": { "type": "Point", "coordinates": [ -58.416298946987858, -34.648706408432993 ] } },
{ "type": "Feature", "properties": { "id": 35, "name": "Hospitales", "line": "H", "plan": "Ley 317" }, "geometry": { "type": "Point", "coordinates": [ -58.412385152533034, -34.641268942609805 ] } },
{ "type": "Feature", "properties": { "id": 36, "name": "Córdoba", "line": "H", "plan": "Ley 317" }, "geometry": { "type": "Point", "coordinates": [ -58.403745001520008, -34.598504729400673 ] } },
{ "type": "Feature", "properties": { "id": 34, "name": "Parque Patricios", "line": "H", "plan": "Ley 317" }, "geometry": { "type": "Point", "coordinates": [ -58.405935078192904, -34.637726014328244 ] } },
{ "type": "Feature", "properties": { "id": 37, "name": "Santa Fe", "line": "H", "plan": "Ley 317" }, "geometry": { "type": "Point", "coordinates": [ -58.402226037924649, -34.594228002258454 ] } },
{ "type": "Feature", "properties": { "id": 33, "name": "Corrientes", "line": "H", "plan": "Ley 317" }, "geometry": { "type": "Point", "coordinates": [ -58.405325343256052, -34.604114845987041 ] } },
{ "type": "Feature", "properties": { "id": 38, "name": "Las Heras", "line": "H", "plan": "Ley 317" }, "geometry": { "type": "Point", "coordinates": [ -58.39736063500834, -34.58762042913478 ] } },
{ "type": "Feature", "properties": { "id": 39, "name": "Plaza Francia", "line": "H", "plan": "Ley 317" }, "geometry": { "type": "Point", "coordinates": [ -58.392525467936984, -34.585353177884592 ] } },
{ "type": "Feature", "properties": { "id": 44, "name": "Plaza Once", "line": "H", "plan": "Ley 317" }, "geometry": { "type": "Point", "coordinates": [ -58.40603638176448, -34.60893524225478 ] } },
{ "type": "Feature", "properties": { "id": 45, "name": "Venezuela", "line": "H", "plan": "Ley 317" }, "geometry": { "type": "Point", "coordinates": [ -58.404731717516796, -34.615242153351325 ] } },
{ "type": "Feature", "properties": { "id": 46, "name": "Humberto I", "line": "H", "plan": "Ley 317" }, "geometry": { "type": "Point", "coordinates": [ -58.402322731734735, -34.623092321595088 ] } },
{ "type": "Feature", "properties": { "id": 47, "name": "Inclán", "line": "H", "plan": "Ley 317" }, "geometry": { "type": "Point", "coordinates": [ -58.400969556928274, -34.629375658098013 ] } },
{ "type": "Feature", "properties": { "id": 41, "name": "Retiro", "line": "H", "plan": "Ley 317" }, "geometry": { "type": "Point", "coordinates": [ -58.375530581097394, -34.592505059182052 ] } },
{ "type": "Feature", "properties": { "id": 42, "name": "Cerrito", "line": "H", "plan": "Ley 317" }, "geometry": { "type": "Point", "coordinates": [ -58.382283883930725, -34.588468974427769 ] } },
{ "type": "Feature", "properties": { "id": 43, "name": "Nueva Pompeya", "line": "H", "plan": "Ley 317" }, "geometry": { "type": "Point", "coordinates": [ -58.416473264548863, -34.656955868344788 ] } },
{ "type": "Feature", "properties": { "id": 59, "name": "Sáenz", "line": "H", "plan": "Ley 5233" }, "geometry": { "type": "Point", "coordinates": [ -58.416313642930675, -34.649371536172502 ] } },
{ "type": "Feature", "properties": { "id": 55, "name": "Hospitales", "line": "H", "plan": "Ley 5233" }, "geometry": { "type": "Point", "coordinates": [ -58.412385152533034, -34.641268942609805 ] } },
{ "type": "Feature", "properties": { "id": 54, "name": "Parque Patricios", "line": "H", "plan": "Ley 5233" }, "geometry": { "type": "Point", "coordinates": [ -58.405935078192904, -34.637726014328244 ] } },
{ "type": "Feature", "properties": { "id": 53, "name": "Corrientes", "line": "H", "plan": "Ley 5233" }, "geometry": { "type": "Point", "coordinates": [ -58.405325343256052, -34.604114845987041 ] } },
{ "type": "Feature", "properties": { "id": 56, "name": "Santa Fe", "line": "H", "plan": "Ley 5233" }, "geometry": { "type": "Point", "coordinates": [ -58.402226037924649, -34.594228002258454 ] } },
{ "type": "Feature", "properties": { "id": 57, "name": "Las Heras", "line": "H", "plan": "Ley 5233" }, "geometry": { "type": "Point", "coordinates": [ -58.39736063500834, -34.58762042913478 ] } },
{ "type": "Feature", "properties": { "id": 52, "name": "Plaza Once", "line": "H", "plan": "Ley 5233" }, "geometry": { "type": "Point", "coordinates": [ -58.40603638176448, -34.60893524225478 ] } },
{ "type": "Feature", "properties": { "id": 58, "name": "Facultad de Derecho", "line": "H", "plan": "Ley 5233" }, "geometry": { "type": "Point", "coordinates": [ -58.391243836490432, -34.583312610941526 ] } },
{ "type": "Feature", "properties": { "id": 51, "name": "Venezuela", "line": "H", "plan": "Ley 5233" }, "geometry": { "type": "Point", "coordinates": [ -58.404731717516796, -34.615242153351325 ] } },
{ "type": "Feature", "properties": { "id": 50, "name": "Humberto I", "line": "H", "plan": "Ley 5233" }, "geometry": { "type": "Point", "coordinates": [ -58.402322731734735, -34.623092321595088 ] } },
{ "type": "Feature", "properties": { "id": 49, "name": "Inclán", "line": "H", "plan": "Ley 5233" }, "geometry": { "type": "Point", "coordinates": [ -58.400969556928274, -34.629375658098013 ] } },
{ "type": "Feature", "properties": { "id": 48, "name": "Caseros", "line": "H", "plan": "Ley 5233" }, "geometry": { "type": "Point", "coordinates": [ -58.398956885468834, -34.635748886502022 ] } },
{ "type": "Feature", "properties": { "id": 61, "name": "Terminal", "line": "H", "plan": "Ley 5233" }, "geometry": { "type": "Point", "coordinates": [ -58.374888431176089, -34.584582204948568 ] } },
{ "type": "Feature", "properties": { "id": 60, "name": "Padre Mugica", "line": "H", "plan": "Ley 5233" }, "geometry": { "type": "Point", "coordinates": [ -58.385506147224277, -34.578101697325707 ] } }
]
}
