{
"type": "FeatureCollection",
                                                                                
"features": [
{ "type": "Feature", "properties": { "id": 5, "name": "Rivadavia", "line": "F", "plan": "Ley 670" }, "geometry": { "type": "Point", "coordinates": [ -58.391887984436778, -34.609756641539136 ] } },
{ "type": "Feature", "properties": { "id": 4, "name": "México", "line": "F", "plan": "Ley 670" }, "geometry": { "type": "Point", "coordinates": [ -58.391671792530616, -34.615984115916419 ] } },
{ "type": "Feature", "properties": { "id": 3, "name": "San Juan", "line": "F", "plan": "Ley 670" }, "geometry": { "type": "Point", "coordinates": [ -58.391449568484212, -34.622988407203557 ] } },
{ "type": "Feature", "properties": { "id": 2, "name": "Sáenz Peña", "line": "F", "plan": "Ley 670" }, "geometry": { "type": "Point", "coordinates": [ -58.387701276968301, -34.627134681786401 ] } },
{ "type": "Feature", "properties": { "id": 1, "name": "Constitución", "line": "F", "plan": "Ley 670" }, "geometry": { "type": "Point", "coordinates": [ -58.380889945067644, -34.626886366464909 ] } },
{ "type": "Feature", "properties": { "id": 7, "name": "Santa Fe", "line": "F", "plan": "Ley 670" }, "geometry": { "type": "Point", "coordinates": [ -58.393266207838529, -34.595631888328271 ] } },
{ "type": "Feature", "properties": { "id": 7, "name": "Córdoba", "line": "F", "plan": "Ley 670" }, "geometry": { "type": "Point", "coordinates": [ -58.392887872002746, -34.599925177679012 ] } },
{ "type": "Feature", "properties": { "id": 6, "name": "Corrientes", "line": "F", "plan": "Ley 670" }, "geometry": { "type": "Point", "coordinates": [ -58.39226632027254, -34.604663109863843 ] } },
{ "type": "Feature", "properties": { "id": 12, "name": "Plaza Italia", "line": "F", "plan": "Ley 670" }, "geometry": { "type": "Point", "coordinates": [ -58.421442093608754, -34.580987433276846 ] } },
{ "type": "Feature", "properties": { "id": 11, "name": "Salguero", "line": "F", "plan": "Ley 670" }, "geometry": { "type": "Point", "coordinates": [ -58.410399416401837, -34.582194460895309 ] } },
{ "type": "Feature", "properties": { "id": 10, "name": "Sánchez de Bustamant", "line": "F", "plan": "Ley 670" }, "geometry": { "type": "Point", "coordinates": [ -58.402643531768284, -34.583462655352108 ] } },
{ "type": "Feature", "properties": { "id": 9, "name": "Pueyrredón", "line": "F", "plan": "Ley 670" }, "geometry": { "type": "Point", "coordinates": [ -58.397481950008675, -34.587267122607706 ] } },
{ "type": "Feature", "properties": { "id": 8, "name": "Junín", "line": "F", "plan": "Ley 670" }, "geometry": { "type": "Point", "coordinates": [ -58.393617519686053, -34.590359514438489 ] } },
{ "type": "Feature", "properties": { "id": 19, "name": "Mario Bravo", "line": "G", "plan": "Ley 670" }, "geometry": { "type": "Point", "coordinates": [ -58.415805782412264, -34.597878795691216 ] } },
{ "type": "Feature", "properties": { "id": 18, "name": "Jean Jaures", "line": "G", "plan": "Ley 670" }, "geometry": { "type": "Point", "coordinates": [ -58.406473458248676, -34.598081118976843 ] } },
{ "type": "Feature", "properties": { "id": 17, "name": "Pueyrredón", "line": "G", "plan": "Ley 670" }, "geometry": { "type": "Point", "coordinates": [ -58.40110449150761, -34.594837564426754 ] } },
{ "type": "Feature", "properties": { "id": 16, "name": "Riobamba", "line": "G", "plan": "Ley 670" }, "geometry": { "type": "Point", "coordinates": [ -58.394468172102371, -34.595842890199961 ] } },
{ "type": "Feature", "properties": { "id": 15, "name": "Paraná", "line": "G", "plan": "Ley 670" }, "geometry": { "type": "Point", "coordinates": [ -58.388246622659956, -34.595811276367215 ] } },
{ "type": "Feature", "properties": { "id": 14, "name": "Cerrito", "line": "G", "plan": "Ley 670" }, "geometry": { "type": "Point", "coordinates": [ -58.382601142610369, -34.595520428541484 ] } },
{ "type": "Feature", "properties": { "id": 13, "name": "Retiro", "line": "G", "plan": "Ley 670" }, "geometry": { "type": "Point", "coordinates": [ -58.373898654316228, -34.592087082683321 ] } },
{ "type": "Feature", "properties": { "id": 21, "name": "Estado de Israel", "line": "G", "plan": "Ley 670" }, "geometry": { "type": "Point", "coordinates": [ -58.431951087261595, -34.601830333175997 ] } },
{ "type": "Feature", "properties": { "id": 20, "name": "Gascón", "line": "G", "plan": "Ley 670" }, "geometry": { "type": "Point", "coordinates": [ -58.422979766584135, -34.597783956481415 ] } },
{ "type": "Feature", "properties": { "id": 23, "name": "Cid Campeador", "line": "G", "plan": "Ley 670" }, "geometry": { "type": "Point", "coordinates": [ -58.445961094894891, -34.607697229209712 ] } },
{ "type": "Feature", "properties": { "id": 22, "name": "Parque Centenario", "line": "G", "plan": "Ley 670" }, "geometry": { "type": "Point", "coordinates": [ -58.435453589169917, -34.608734008253684 ] } }
]
}
